[
  {
      "id": 286,
      "name": "Abnormal Beer Company",
      "brewery_type": "micro",
      "street": "16990 Via Tazon Ste 123",
      "address_2": null,
      "address_3": null,
      "city": "San Diego",
      "state": "California",
      "county_province": null,
      "postal_code": "92127-1649",
      "country": "United States",
      "longitude": "-117.08575",
      "latitude": "33.02391",
      "phone": "8586182463",
      "website_url": "http://abnormalbeer.co",
      "updated_at": "2018-08-23T23:24:00.025Z",
      "created_at": "2018-07-24T01:32:51.325Z"
  },
  {
      "id": 430,
      "name": "Brewery in Planning - San Diego",
      "brewery_type": "planning",
      "street": "",
      "address_2": null,
      "address_3": null,
      "city": "San Diego",
      "state": "California",
      "county_province": null,
      "postal_code": "92121-4396",
      "country": "United States",
      "longitude": "-117.1627714",
      "latitude": "32.7174209",
      "phone": "8588882188",
      "website_url": "http://WWW.gravityheights.com",
      "updated_at": "2018-08-23T23:26:06.455Z",
      "created_at": "2018-07-24T01:32:53.189Z"
  },
  {
      "id": 573,
      "name": "Eppig Brewing",
      "brewery_type": "micro",
      "street": "3052 El Cajon Blvd Ste 103",
      "address_2": null,
      "address_3": null,
      "city": "San Diego",
      "state": "California",
      "county_province": null,
      "postal_code": "92104-1399",
      "country": "United States",
      "longitude": "-117.128732",
      "latitude": "32.755723",
      "phone": "6195011840",
      "website_url": "http://www.eppigbrewing.com",
      "updated_at": "2018-08-23T23:28:03.844Z",
      "created_at": "2018-07-24T01:32:55.121Z"
  },
  {
      "id": 814,
      "name": "Mike Hess Brewing - Miramar",
      "brewery_type": "micro",
      "street": "7955 Silverton Ave Ste 1201",
      "address_2": null,
      "address_3": null,
      "city": "San Diego",
      "state": "California",
      "county_province": null,
      "postal_code": "92126-6357",
      "country": "United States",
      "longitude": "-117.151828378447",
      "latitude": "32.8908008085346",
      "phone": "6198876453",
      "website_url": "http://www.hessbrewing.com",
      "updated_at": "2018-08-23T23:59:31.275Z",
      "created_at": "2018-07-24T01:32:58.257Z"
  },
  {
      "id": 847,
      "name": "New English Brewing Co Inc",
      "brewery_type": "micro",
      "street": "11545 Sorrento Valley Rd Ste 305",
      "address_2": null,
      "address_3": null,
      "city": "San Diego",
      "state": "California",
      "county_province": null,
      "postal_code": "92121-1322",
      "country": "United States",
      "longitude": "-117.230519",
      "latitude": "32.912641",
      "phone": "6198578023",
      "website_url": "http://www.newenglishbrewing.com",
      "updated_at": "2018-08-24T00:00:00.076Z",
      "created_at": "2018-07-24T01:32:58.670Z"
  },
  {
      "id": 1059,
      "name": "Stone Brewing World Bistro & Gardens- Liberty Station",
      "brewery_type": "brewpub",
      "street": "2816 Historic Decatur Rd Ste 116",
      "address_2": null,
      "address_3": null,
      "city": "San Diego",
      "state": "California",
      "county_province": null,
      "postal_code": "92106-6164",
      "country": "United States",
      "longitude": "-117.21157",
      "latitude": "32.7405237",
      "phone": "6192692200",
      "website_url": "http://www.stonelibertystation.com",
      "updated_at": "2018-08-24T00:03:14.354Z",
      "created_at": "2018-07-24T01:33:01.470Z"
  },
  {
      "id": 1123,
      "name": "Thunderhawk Alements",
      "brewery_type": "micro",
      "street": "8675 Miralani Dr Ste 100",
      "address_2": null,
      "address_3": null,
      "city": "San Diego",
      "state": "California",
      "county_province": null,
      "postal_code": "92126-4355",
      "country": "United States",
      "longitude": "-117.137466970906",
      "latitude": "32.8957500613992",
      "phone": "6199524832",
      "website_url": "http://thunderhawkbeer.com",
      "updated_at": "2018-08-24T00:04:11.527Z",
      "created_at": "2018-07-24T01:33:02.328Z"
  },
  {
      "id": 304,
      "name": "Alta Brewing Company",
      "brewery_type": "micro",
      "street": "1983 Julian Avenue",
      "address_2": null,
      "address_3": null,
      "city": "San Diego",
      "state": "California",
      "county_province": null,
      "postal_code": "92113-1125",
      "country": "United States",
      "longitude": "-117.141471216793",
      "latitude": "32.7018758",
      "phone": "6197957300",
      "website_url": "http://www.altabrewing.com",
      "updated_at": "2018-08-23T23:24:16.023Z",
      "created_at": "2018-07-24T01:32:51.554Z"
  },
  {
      "id": 275,
      "name": "32 North Brewing Co",
      "brewery_type": "micro",
      "street": "8655 Production Ave Ste A",
      "address_2": null,
      "address_3": null,
      "city": "San Diego",
      "state": "California",
      "county_province": null,
      "postal_code": "92121-2258",
      "country": "United States",
      "longitude": null,
      "latitude": null,
      "phone": "",
      "website_url": "",
      "updated_at": "2018-08-11T21:35:52.946Z",
      "created_at": "2018-07-24T01:32:51.185Z"
  },
  {
      "id": 265,
      "name": "10 Barrel Brewing Co",
      "brewery_type": "large",
      "street": "1501 E St",
      "address_2": null,
      "address_3": null,
      "city": "San Diego",
      "state": "California",
      "county_province": null,
      "postal_code": "92101-6618",
      "country": "United States",
      "longitude": "-117.129593",
      "latitude": "32.714813",
      "phone": "6195782311",
      "website_url": "http://10barrel.com",
      "updated_at": "2018-08-23T23:23:41.575Z",
      "created_at": "2018-07-24T01:32:51.036Z"
  },
  {
      "id": 272,
      "name": "2Kids Brewing Company",
      "brewery_type": "micro",
      "street": "8680 Miralani Dr Ste 123",
      "address_2": null,
      "address_3": null,
      "city": "San Diego",
      "state": "California",
      "county_province": null,
      "postal_code": "92126-6391",
      "country": "United States",
      "longitude": "-117.137429",
      "latitude": "32.896584",
      "phone": "8584805437",
      "website_url": "http://www.2kidsBrewing.com",
      "updated_at": "2018-08-23T23:23:47.575Z",
      "created_at": "2018-07-24T01:32:51.124Z"
  },
  {
      "id": 289,
      "name": "Acoustic Ales Brewing Experiment",
      "brewery_type": "micro",
      "street": "1795 Hancock St Ste P1",
      "address_2": null,
      "address_3": null,
      "city": "San Diego",
      "state": "California",
      "county_province": null,
      "postal_code": "92110-2006",
      "country": "United States",
      "longitude": null,
      "latitude": null,
      "phone": "6192992537",
      "website_url": "http://www.acousticales.com",
      "updated_at": "2018-08-11T21:35:53.430Z",
      "created_at": "2018-07-24T01:32:51.361Z"
  },
  {
      "id": 296,
      "name": "AleSmith Brewing Co",
      "brewery_type": "regional",
      "street": "9990 Alesmith Ct",
      "address_2": null,
      "address_3": null,
      "city": "San Diego",
      "state": "California",
      "county_province": null,
      "postal_code": "92126-4200",
      "country": "United States",
      "longitude": null,
      "latitude": null,
      "phone": "8585499888",
      "website_url": "http://www.alesmith.com",
      "updated_at": "2018-08-11T21:35:53.891Z",
      "created_at": "2018-07-24T01:32:51.452Z"
  },
  {
      "id": 311,
      "name": "Amplified Ale Works Miramar Studio",
      "brewery_type": "brewpub",
      "street": "9030 Kenamar Dr Ste 309",
      "address_2": null,
      "address_3": null,
      "city": "San Diego",
      "state": "California",
      "county_province": null,
      "postal_code": "92121-2432",
      "country": "United States",
      "longitude": null,
      "latitude": null,
      "phone": "6503804220",
      "website_url": "",
      "updated_at": "2018-08-11T21:35:54.470Z",
      "created_at": "2018-07-24T01:32:51.645Z"
  },
  {
      "id": 297,
      "name": "Align Brewing Co",
      "brewery_type": "micro",
      "street": "8680 Miralani Dr",
      "address_2": null,
      "address_3": null,
      "city": "San Diego",
      "state": "California",
      "county_province": null,
      "postal_code": "92126-6300",
      "country": "United States",
      "longitude": "-117.137429",
      "latitude": "32.896584",
      "phone": "",
      "website_url": "http://www.facebook.com/alignbrewing",
      "updated_at": "2018-08-23T23:24:10.056Z",
      "created_at": "2018-07-24T01:32:51.464Z"
  },
  {
      "id": 310,
      "name": "Amplified Ale Works",
      "brewery_type": "brewpub",
      "street": "4150 Mission Blvd Ste 208",
      "address_2": null,
      "address_3": null,
      "city": "San Diego",
      "state": "California",
      "county_province": null,
      "postal_code": "92109-5054",
      "country": "United States",
      "longitude": "-117.2511178",
      "latitude": "32.7719729",
      "phone": "6195871400",
      "website_url": "http://www.amplifiedales.com",
      "updated_at": "2018-08-23T23:24:21.854Z",
      "created_at": "2018-07-24T01:32:51.632Z"
  },
  {
      "id": 335,
      "name": "Ballast Point Brewing Co / Home Brew Mart",
      "brewery_type": "large",
      "street": "5401 Linda Vista Rd Ste 406",
      "address_2": null,
      "address_3": null,
      "city": "San Diego",
      "state": "California",
      "county_province": null,
      "postal_code": "92110-2402",
      "country": "United States",
      "longitude": null,
      "latitude": null,
      "phone": "6198517681",
      "website_url": "http://www.ballastpoint.com",
      "updated_at": "2018-08-11T21:35:55.200Z",
      "created_at": "2018-07-24T01:32:52.005Z"
  },
  {
      "id": 344,
      "name": "Barn Brewery",
      "brewery_type": "micro",
      "street": "2850 El Cajon Blvd Ste 3",
      "address_2": null,
      "address_3": null,
      "city": "San Diego",
      "state": "California",
      "county_province": null,
      "postal_code": "92104-1389",
      "country": "United States",
      "longitude": null,
      "latitude": null,
      "phone": "6199558228",
      "website_url": "http://www.thebarnbrew.com",
      "updated_at": "2018-08-11T21:35:55.453Z",
      "created_at": "2018-07-24T01:32:52.135Z"
  },
  {
      "id": 336,
      "name": "Ballast Point Brewing Company",
      "brewery_type": "large",
      "street": "9045 Carroll Way",
      "address_2": null,
      "address_3": null,
      "city": "San Diego",
      "state": "California",
      "county_province": null,
      "postal_code": "92121-2405",
      "country": "United States",
      "longitude": "-117.158725107822",
      "latitude": "32.887980832974",
      "phone": "8586952739",
      "website_url": "http://www.ballastpoint.com",
      "updated_at": "2018-08-23T23:24:48.016Z",
      "created_at": "2018-07-24T01:32:52.020Z"
  },
  {
      "id": 338,
      "name": "Ballast Point Brewing Company",
      "brewery_type": "large",
      "street": "7606 Trade St",
      "address_2": null,
      "address_3": null,
      "city": "San Diego",
      "state": "California",
      "county_province": null,
      "postal_code": "92121-2405",
      "country": "United States",
      "longitude": "-117.157081",
      "latitude": "32.889641",
      "phone": "8586952739",
      "website_url": "",
      "updated_at": "2018-08-23T23:24:50.216Z",
      "created_at": "2018-07-24T01:32:52.063Z"
  }
]